     2.10           OBSERVATION DATA    G (GPS)             RINEX VERSION / TYPE
teqc  2007Feb5      UNAVCO Archive Ops  20070222 10:18:25UTCPGM / RUN BY / DATE
Solaris 5.10|UltraSparc IIIi|cc -xarch=v9 SC5.8|=+-|*Sparc  COMMENT
BIT 2 OF LLI FLAGS DATA COLLECTED UNDER A/S CONDITION       COMMENT
ALAM                                                        MARKER NAME
                                                            MARKER NUMBER
Wernicke, Brian     CALTECH                                 OBSERVER / AGENCY
3847A24878          TRIMBLE 4000SSI     7.19b               REC # / TYPE / VERS
0220143802          TRM29659.00     SCIS                    ANT # / TYPE
 -2158287.5021 -4595239.5611  3849706.7364                  APPROX POSITION XYZ
        0.1283        0.0000        0.0000                  ANTENNA: DELTA H/E/N
     1     1                                                WAVELENGTH FACT L1/2
     7    L1    L2    C1    P2    P1    S1    S2            # / TYPES OF OBSERV
    30.0000                                                 INTERVAL
RINEX file created by UNAVCO GPS Archive.                   COMMENT
For more information contact archive@unavco.org             COMMENT
Monument ID: EJEHTC9Q-13478-1999a                           COMMENT
UNAVCO 4-char name:   ALAM                                  COMMENT
4-char name from Log or data file: ALAM                     COMMENT
Monument location: 37.35795833 -115.15845821 1090.0161      COMMENT
Visit ID: 53696                                             COMMENT
                                                            COMMENT
NOTICE: If using these data for scientific purposes,        COMMENT
please acknowledge: R.A. Bennett, B.P. Wernicke, and        COMMENT
J.L. Davis; see also:                                       COMMENT
    http://cfa-www.harvard.edu/space_geodesy/BARGEN/Data    COMMENT
                                                            COMMENT
End of DB comments                                          COMMENT
 SNR is mapped to RINEX snr flag value [1-9]                COMMENT
  L1: 3 -> 1; 8 -> 5; 40 -> 9                               COMMENT
  L2: 1 -> 1; 5 -> 5; 60 -> 9                               COMMENT
  2002    12    26     0     0   30.0000000     GPS         TIME OF FIRST OBS
                                                            END OF HEADER
 02 12 26  0  0 30.0000000  0  8G30G 4G10G 5G 9G24G 6G 7
  -4882307.22256  -3747851.26655  23119753.8984   23119760.4264
        13.5004         11.2504
    743902.41858    778123.62356  21445866.9534   21445871.6054
        31.0004         25.0004
  -3343364.22855  -2494481.57655  24055342.2034   24055352.0634
         8.2504          7.7504
  -8925531.28958  -3442062.66157  20849945.7814   20849950.7854
        34.0004         31.7504
   8899384.51556   6989679.81056  22838592.9144   22838599.4184
        19.7504         16.2504
  -8217568.01758  -6277293.77757  20585824.4694   20585829.9304
        33.5004         30.7504
    -17379.83253                  25433134.5704
         5.5004
  29417610.42755   3051777.96655  24179171.1094   24179179.4924
         8.2504          7.7504
 02 12 26  0  1  0.0000000  0  8G30G 4G10G 5G 9G24G 6G 7
  -4931179.17846  -3785933.12245  23110453.6954   23110460.2234
        14.0004         11.5004
    856420.01348    865799.68746  21467278.2734   21467283.1724
        30.7504         24.7504
  -3400636.48244  -2539108.93745  24044442.2894   24044452.4184
         7.7504          8.0004
  -8919553.69048  -3437404.72947  20851083.1644   20851088.2384
        34.0004         31.5004
   9026024.68146   7088360.40746  22862691.7814   22862698.5554
        19.5004         16.2504
  -8165351.06848  -6236605.21147  20595760.9304   20595766.4144
        33.2504         30.7504
    -48030.88242                  25427296.8364
         4.0004
  29533268.38645   3141901.00845  24201180.9614   24201186.2934
         9.5004          7.2504
 02 12 26  0  1 30.0000000  0  8G30G 4G10G 5G 9G24G 6G 7
  -4979883.38946  -3823884.29545  23101185.2974   23101191.3794
        14.2504         11.0004
    969319.88748    953773.63046  21488762.3134   21488767.0824
        31.2504         24.7504
  -3457854.25545  -2583693.79945  24033555.5704   24033567.3054
         9.0004          8.0004
  -8913144.12548  -3432410.19547  20852302.8054   20852307.8324
        34.0004         31.7504
   9152962.66246   7187273.05346  22886847.3054   22886854.0434
        19.0004         15.7504
  -8112629.11348  -6195523.13247  20605793.5944   20605798.9844
        33.2504         30.7504
    -11229.98253                  25421472.0004
         6.2504
  29648984.12845   3232069.13645  24223203.8444   24223209.9844
        10.0004          7.7504
 02 12 26  0  2  0.0000000  0  8G30G 4G10G 5G 9G24G 6G 7
  -5028424.11246  -3861708.04245  23091948.3984   23091955.2074
        14.2504         11.5004
   1082592.81548   1042038.27046  21510317.5634   21510322.1684
        31.2504         24.7504
  -3515020.99945  -2628238.90945  24022675.7344   24022684.8094
         9.0004          9.0004
  -8906307.51148  -3427082.89547  20853603.7344   20853608.8094
        34.0004         32.0004
   9280188.52646   7286410.01546  22911057.0864   22911063.6954
        18.5004         15.7504
  -8059409.85748  -6154053.54147  20615921.0634   20615926.5704
        33.2504         30.7504
    -41849.87342                  25415640.6484
         4.7504
  29764750.98145   3322277.08945  24245232.0314   24245239.5234
         9.2504          8.0004
 02 12 26  0  2 30.0000000  0  8G30G 4G10G 5G 9G24G 6G 7
  -5076797.82646  -3899401.68845  23082743.9224   23082750.1804
        14.7504         11.5004
   1196237.68748   1130592.73646  21531943.6564   21531948.3914
        31.0004         24.7504
  -3572132.00945  -2672740.55345  24011808.4224   24011818.0004
         9.7504          8.5004
  -8899040.63848  -3421420.32947  20854986.5394   20854991.5204
        34.0004         32.0004
   9407700.70146   7385770.08546  22935322.3984   22935329.2704
        18.2504         15.5004
  -8005693.23648  -6112196.39147  20626142.7734   20626148.3054
        33.2504         30.7504
    -72456.16544          .08854  25409821.7194   25409834.7424
         7.7504          4.7504
  29880570.17345   3412525.76645  24267270.4144   24267275.9104
         9.2504          7.2504